stop_id,stop_name,stop_lat,stop_lon,location_type,parent_station
"8580689:0:A","St. Gallen, Neudorf/R'str.","47.437245","9.405936","","Parent8580689"
"8589600","St. Gallen, Mövenstrasse","47.404795","9.309313","","Parent8589600"
"8574223","St. Gallen, St.Leonhard","47.420831","9.367030","","Parent8574223"
"8589588","St. Gallen, Hüttenwies","47.444397","9.403816","","Parent8589588"
"8589896:0:A","St. Gallen Winkeln, Bhf. Nord","47.404375","9.302926","","Parent8589896"
"8589593","St. Gallen, Kräzern","47.405695","9.315979","","Parent8589593"
"8589558:0:A","St. Gallen Winkeln, Bhf. Süd","47.402673","9.301668","","Parent8589558"
"8589632","St. Gallen, Stocken","47.407166","9.325258","","Parent8589632"
"8574095:0:B","St. Gallen, Bahnhof","47.423493","9.370488","","Parent8574095"
"8589595","St. Gallen, Lachen","47.419579","9.354957","","Parent8589595"
"8574469","St. Gallen, Theater","47.426392","9.380981","","Parent8574469"
"8589580","St. Gallen, Guggeien","47.446717","9.405011","","Parent8589580"
"8589638","St. Gallen, Untere Kräzern","47.406667","9.319922","","Parent8589638"
"8589625","St. Gallen, Singenberg","47.427687","9.384826","","Parent8589625"
"8589611","St. Gallen, Rosenbergstrasse","47.421415","9.364048","","Parent8589611"
"8574471","St. Gallen, Marktplatz Bohl","47.426465","9.376660","","Parent8574471"
"8574465","St. Gallen, Grossacker","47.431461","9.395749","","Parent8574465"
"8574467","St. Gallen, Kantonssfpital","47.429309","9.388275","","Parent8574467"
"8589629","St. Gallen, St. Fiden Zentrum","47.430586","9.391581","","Parent8589629"
"8589594","St. Gallen, Krontal","47.433059","9.399235","","Parent8589594"
"8589579","St. Gallen, Grütlistrasse","47.435386","9.402954","","Parent8589579"
"8589619","St. Gallen, Scheidweg","47.404801","9.311909","","Parent8589619"
"8587343","St. Gallen, Fürstenlandbrücke","47.407908","9.328223","","Parent8587343"
"8589895","St. Gallen, Stahl KV-Schule","47.420953","9.358155","","Parent8589895"
"8589597","St. Gallen, Lindenstrasse","47.438157","9.404328","","Parent8589597"
"8589642","St. Gallen, Waldau","47.417634","9.350717","","Parent8589642"
"8589609","St. Gallen, Poststrasse","47.424952","9.373785","","Parent8589609"
"8589617","St. Gallen, Saturn","47.438922","9.402900","","Parent8589617"
"8589606","St. Gallen, Ostfriedhof","47.441468","9.402927","","Parent8589606"
"8589646","St. Gallen, Winkeln","47.400691","9.300752","","Parent8589646"
"8589596","St. Gallen, Lerchenfeld","47.415154","9.341895","","Parent8589596"
"8589622","St. Gallen, Schönenwegen","47.416102","9.347060","","Parent8589622"
"8588501","St. Gallen Bruggen, Erlachstr.","47.412005","9.336056","","Parent8588501"
"8589566","St. Gallen, Bruggen","47.410418","9.331960","","Parent8589566"
"8589644","St. Gallen, Westcenter","47.405707","9.305477","","Parent8589644"
"8589648","St. Gallen, Wolfganghof","47.402132","9.332472","","Parent8589648"
"8580689:0:B","St. Gallen, Neudorf/R'str.","47.437245","9.405936","","Parent8580689"
"8574095:0:A","St. Gallen, Bahnhof","47.423493","9.370488","","Parent8574095"
"8589582","St. Gallen, Haggen","47.406406","9.337439","","Parent8589582"
"8589599","St. Gallen, Moosweiher","47.409458","9.336873","","Parent8589599"
"8589578","St. Gallen, Gröblistrasse","47.407822","9.336038","","Parent8589578"
"8589621","St. Gallen, Schlössli","47.403974","9.338886","","Parent8589621"
"8589550","St. Gallen, Aetschberg","47.403263","9.331322","","Parent8589550"
"8589562","St. Gallen, Boppartshof","47.403105","9.336532","","Parent8589562"
"8594355","St. Gallen, Wendeplatz Stocken","47.407391","9.326390","","Parent8594355"
"8574471:0:10000","St. Gallen, Marktplatz Bohl","47.426429","9.376956","","Parent8574471"
"8518100","St. Gallen Birnbäumen","47.425833","9.392982","","Parent8518100"
"8550757","St. Gallen, Spisertor (Bus)","47.424806","9.379570","","Parent8550757"
"8574095:0:I","St. Gallen, Bahnhof","47.423493","9.370488","","Parent8574095"
"8510129","St. Gallen, Schülerhaus","47.424958","9.387503","","Parent8510129"
"8510127","St. Gallen, Notkersegg","47.425140","9.402909","","Parent8510127"
"8510126","Schwarzer Bären, Bahnhof","47.421828","9.415773","","Parent8510126"
"8510125","Vögelinsegg, Bahnhof","47.415999","9.436434","","Parent8510125"
"8510124","Schützengarten, Bahnhof","47.412759","9.438275","","Parent8510124"
"8574075","Speicher, Bahnhof","47.411190","9.442560","","Parent8574075"
"8510123","Bendlehn, Bahnhof","47.406795","9.451445","","Parent8510123"
"8510122","Gfeld, Bahnhof","47.404995","9.455631","","Parent8510122"
"8574160","Trogen, Bahnhof","47.407178","9.461694","","Parent8574160"
"8589604","St. Gallen, Oberstrasse","47.419069","9.369797","","Parent8589604"
"8574472","St. Gallen, Grütli","47.432664","9.406071","","Parent8574472"
"8580689:0:C","St. Gallen, Neudorf/R'str.","47.437245","9.405936","","Parent8580689"
"8574257","St. Gallen, Bleicheli","47.422010","9.371926","","Parent8574257"
"8589581","St. Gallen, Hagenbuch","47.430233","9.398687","","Parent8589581"
"8589616","St. Gallen, Ruhsitz","47.413835","9.354669","","Parent8589616"
"8574462","St. Gallen, Favrestrasse","47.437185","9.414766","","Parent8574462"
"8594387","St. Gallen, Kirche Bruggen","47.409142","9.331493","","Parent8594387"
"8589614","St. Gallen, Ruckhalde","47.415227","9.360221","","Parent8589614"
"8589573","St. Gallen, Friedhof Bruggen","47.410279","9.335616","","Parent8589573"
"8594267","St. Gallen, Haselstrasse","47.406181","9.341302","","Parent8594267"
"8594268","St. Gallen, Rosenbüchel","47.408424","9.342964","","Parent8594268"
"8589551","St. Gallen, Ahorn","47.412686","9.351076","","Parent8589551"
"8589572","St. Gallen, Friedberg","47.414242","9.356978","","Parent8589572"
"8589576","St. Gallen, Geltenwilenstrasse","47.417987","9.366159","","Parent8589576"
"8589583","St. Gallen, Halden","47.433193","9.410931","","Parent8589583"
"8589571","St. Gallen, Flurhof","47.428544","9.394402","","Parent8589571"
"8589553","St. Gallen, Am Weg","47.436437","9.412036","","Parent8589553"
"8589567","St. Gallen, Bruggwiesen","47.431054","9.402199","","Parent8589567"
"8574470","St. Gallen, Achslen","47.433509","9.412871","","Parent8574470"
"8589639","St. Gallen, Vogelherd","47.433976","9.415162","","Parent8589639"
"8589618","St. Gallen, Schachenbüel","47.436249","9.418566","","Parent8589618"
"8589645","St. Gallen, Wilen","47.438023","9.419518","","Parent8589645"
"8589574","St. Gallen, Gallusmarkt","47.437513","9.413410","","Parent8589574"
"8589561","St. Gallen, Blumenwies","47.436638","9.408433","","Parent8589561"
"8574095:0:H","St. Gallen, Bahnhof","47.423493","9.370488","","Parent8574095"
"8580689","St. Gallen, Neudorf/R'str.","47.437245","9.405936","","Parent8580689"
"8589626:0:C","St. Gallen, Sonne","47.439548","9.379966","","Parent8589626"
"8589589","St. Gallen, Iddastrasse","47.440867","9.391257","","Parent8589589"
"8589607","St. Gallen, Pelikanstrasse","47.437507","9.391231","","Parent8589607"
"8589557","St. Gallen St. Fiden, Bhf. Ost","47.435386","9.395291","","Parent8589557"
"8589633","St. Gallen, Storchenstrasse","47.439816","9.391419","","Parent8589633"
"8589584","St. Gallen, Harzbüchelstrasse","47.437762","9.400995","","Parent8589584"
"8589555:0:D","St. Gallen, Bachstrasse","47.435611","9.392821","","Parent8589555"
"8574278","Horn, evang. Kirche","47.496686","9.459395","","Parent8574278"
"8506459","St. Gallen, Heiligkreuzstrasse","47.441110","9.392991","","Parent8506459"
"8574095:0:C","St. Gallen, Bahnhof","47.423493","9.370488","","Parent8574095"
"8595872","St. Gallen, Schuppis Nord","47.441900","9.419357","","Parent8595872"
"8595871","St. Gallen, Schuppisstrasse","47.440581","9.418234","","Parent8595871"
"8589587","St. Gallen, Hölzli","47.427997","9.364865","","Parent8589587"
"8589623","St. Gallen, Schoren","47.425809","9.360418","","Parent8589623"
"8589569","St. Gallen, Dietlistrasse","47.423232","9.358235","","Parent8589569"
"8589613:0:C","St. Gallen, Rotmonten","47.437130","9.377028","","Parent8589613"
"8589634","St. Gallen, Talstrasse","47.435763","9.397860","","Parent8589634"
"8589568","St. Gallen, Dierauerstrasse","47.430889","9.377289","","Parent8589568"
"8589575","St. Gallen, Uni/Gatterstrasse","47.431582","9.373525","","Parent8589575"
"8589643","St. Gallen, Waldgutstrasse","47.435556","9.376103","","Parent8589643"
"8589577","St. Gallen, Goethestrasse","47.439427","9.385454","","Parent8589577"
"8502517","St. Gallen, Uni/Curtistrasse","47.431831","9.377208","","Parent8502517"
"8589620","St. Gallen, Schibenertor","47.425894","9.373435","","Parent8589620"
"8589626:0:B","St. Gallen, Sonne","47.439548","9.379966","","Parent8589626"
"8589613:0:B","St. Gallen, Rotmonten","47.437130","9.377028","","Parent8589613"
"8589635","St. Gallen, Tigerberg","47.428143","9.372312","","Parent8589635"
"8589560","St. Gallen, Blumenberg","47.426423","9.373803","","Parent8589560"
"8589647","St. Gallen, Winkelriedstrasse","47.425973","9.370021","","Parent8589647"
"8589613:0:A","St. Gallen, Rotmonten","47.437130","9.377028","","Parent8589613"
"8589626:0:A","St. Gallen, Sonne","47.439548","9.379966","","Parent8589626"
"8589555:0:C","St. Gallen, Bachstrasse","47.435611","9.392821","","Parent8589555"
"8574253","Kronbühl, Kantonalbank","47.459103","9.394500","","Parent8574253"
"8589605","St. Gallen, Olma Messen","47.431764","9.381933","","Parent8589605"
"8573967","Wittenbach, Grünau","47.460694","9.382184","","Parent8573967"
"8573966","Wittenbach, Zentrum","47.459874","9.388167","","Parent8573966"
"8574240","Kronbühl, Bruggbach","47.455544","9.398561","","Parent8574240"
"8574239","St. Gallen, Schützengarten","47.429680","9.379058","","Parent8574239"
"8589586","St. Gallen, Heimatstrasse","47.437045","9.388131","","Parent8589586"
"8574256","Wittenbach, Gemeindehaus","47.463725","9.384745","","Parent8574256"
"8506653","St. Gallen, Langgass","47.434463","9.384673","","Parent8506653"
"8506703","St. Gallen, Sonnrainweg","47.448552","9.397977","","Parent8506703"
"8573965:0:D","Wittenbach, Bahnhof","47.462844","9.388221","","Parent8573965"
"8573965:0:A","Wittenbach, Bahnhof","47.462844","9.388221","","Parent8573965"
"8506649","Abtwil SG, Farnen","47.423870","9.326911","","Parent8506649"
"8581774","Abtwil SG, Säntispark","47.417488","9.315017","","Parent8581774"
"8581777","Abtwil SG, Wiesenbach/Cinedome","47.416218","9.312349","","Parent8581777"
"8589908","Abtwil SG, St. Josefen","47.423202","9.331394","","Parent8589908"
"8574095:0:F","St. Gallen, Bahnhof","47.423493","9.370488","","Parent8574095"
"8574254","Wittenbach, Im Grüntal","47.463676","9.375124","","Parent8574254"
"8589552","St. Gallen, Altenwegen","47.410084","9.313409","","Parent8589552"
"8574255","Wittenbach, Sportanlagen","47.465662","9.382634","","Parent8574255"
"8506263","Kronbühl, alte Post","47.458186","9.396010","","Parent8506263"
"8588961","Abtwil SG, Ausserdorf","47.420394","9.314712","","Parent8588961"
"8588500","St. Gallen, Russen","47.407512","9.315556","","Parent8588500"
"8581776","Abtwil SG, Zentrumpark","47.422466","9.317632","","Parent8581776"
"8588962","Abtwil SG, Hüslenweg","47.423797","9.321575","","Parent8588962"
"8594356","St. Gallen, Moos","47.411282","9.340323","","Parent8594356"
"8589641","St. Gallen, Waldacker","47.413829","9.348570","","Parent8589641"
"8589640","St. Gallen, Vonwil","47.417178","9.357454","","Parent8589640"
"8589628","St. Gallen, Sporthalle","47.419640","9.362547","","Parent8589628"
"8588966","Abtwil SG, Gemeindehaus","47.422041","9.319338","","Parent8588966"
"8588965","Abtwil SG, Friedhof","47.422035","9.323003","","Parent8588965"
"8574095:0:E","St. Gallen, Bahnhof","47.423493","9.370488","","Parent8574095"
"8588964","Abtwil SG, Grund","47.423074","9.327675","","Parent8588964"
"8588889","Abtwil SG, Dorf","47.421524","9.316419","","Parent8588889"
"8579826","Appenzell, Meistersrüte","47.348708","9.432598","","Parent8579826"
"8507704","Gais, Bahnhof","47.360898","9.450789","","Parent8507704"
"8581183","Appenzell, Hirschberg Station","47.332004","9.421333","","Parent8581183"
"8578423","Appenzell, Bahnhof","47.328899","9.409448","","Parent8578423"
"8574066","Teufen AR, Bahnhof","47.390104","9.389838","","Parent8574066"
"8510132","Zweibrücken, Bahnhof","47.359608","9.445381","","Parent8510132"
"8510131","Strahlholz, Bahnhof","47.366423","9.431852","","Parent8510131"
"8507702","Bühler, Bahnhof","47.373097","9.420677","","Parent8507702"
"8510130","Steigbach, Bahnhof","47.376516","9.405226","","Parent8510130"
"8574095:0:J","St. Gallen, Bahnhof","47.423493","9.370488","","Parent8574095"
"8589612","St. Gallen, Röteli","47.423262","9.361182","","Parent8589612"
"8589602","St. Gallen, Nussbaumstrasse","47.424229","9.364056","","Parent8589602"
"8589907","St. Gallen, Oberhofstetten","47.407579","9.359529","","Parent8589907"
"8589904","St. Gallen, Fähnernstrasse","47.411519","9.362404","","Parent8589904"
"8589906","St. Gallen, Oberhofstettenweg","47.408820","9.363050","","Parent8589906"
"8589905","St. Gallen, Hafnerwaldstrasse","47.407494","9.362377","","Parent8589905"
"8589903","St. Gallen, Solitüdenstrasse","47.412613","9.363688","","Parent8589903"
"8594351","St. Gallen St. Fiden, Bhf. Süd","47.434244","9.393719","","Parent8594351"
"8594352","St. Gallen, Bruggwaldpark","47.444227","9.394985","","Parent8594352"
"8594350","St. Gallen, Lindenhof","47.432956","9.393225","","Parent8594350"
"8594349","St. Gallen, Spitalstrasse","47.432293","9.389263","","Parent8594349"
"8594353","St. Gallen, Bruggwald","47.447884","9.396207","","Parent8594353"
"8594354","Wittenbach, Abacus-Platz","47.450763","9.396037","","Parent8594354"
"8594345","St. Gallen, Einstein","47.421816","9.373893","","Parent8594345"
"8595613","St. Gallen, Karlstor","47.423542","9.379328","","Parent8595613"
"8594346","St. Gallen, Stiftsbezirk","47.422199","9.377064","","Parent8594346"
"8594347","St. Gallen, Kantonsschule","47.424988","9.381583","","Parent8594347"
"8574226","St. Gallen, Spisegg","47.424113","9.340018","","Parent8574226"
"8574225","St. Gallen, Sömmerli","47.422357","9.348632","","Parent8574225"
"8506643","Abtwil SG, Sonnenberg","47.425809","9.319087","","Parent8506643"
"8574224","St. Gallen, Stahl","47.421591","9.356591","","Parent8574224"
"8506645","Abtwil SG, Dufourpark","47.425402","9.323111","","Parent8506645"
"8589585","St. Gallen, Heiligkreuz","47.442355","9.394842","","Parent8589585"
"8589631","St. Gallen, Stephanshorn","47.444251","9.408236","","Parent8589631"
"8589592","St. Gallen,Klinik Stephanshorn","47.443698","9.410688","","Parent8589592"
"8589563","St. Gallen, Naturmuseum","47.439621","9.409700","","Parent8589563"
"8589649","St. Gallen, Zil","47.442392","9.413221","","Parent8589649"
"8589896:0:B","St. Gallen Winkeln, Bhf. Nord","47.404375","9.302926","","Parent8589896"
"8589558:0:B","St. Gallen Winkeln, Bhf. Süd","47.402673","9.301668","","Parent8589558"
"8574258","St. Gallen, Riethüsli","47.411774","9.366401","","Parent8574258"
"8589603","St. Gallen, Obere Leimat","47.435161","9.378690","","Parent8589603"
"8589615","St. Gallen, Ruhbergstrasse","47.415628","9.365332","","Parent8589615"
"8589598","St. Gallen, Melonenstrasse","47.417032","9.366841","","Parent8589598"
"8580242","St. Gallen, Hochwacht","47.413738","9.363679","","Parent8580242"
"8589637","St. Gallen, Uni/Dufourstrasse","47.432840","9.378025","","Parent8589637"
"8589627","St. Gallen, Sonnenhalde","47.439433","9.381843","","Parent8589627"
"8589624","St. Gallen, Seeblick","47.439943","9.377792","","Parent8589624"
"8589555:0:A","St. Gallen, Bachstrasse","47.435611","9.392821","","Parent8589555"
"8502513","St. Gallen, Rosenheimstrasse","47.434128","9.385805","","Parent8502513"
"8502514","St. Gallen, Hodlerstrasse","47.437130","9.394851","","Parent8502514"
"8589630","St. Gallen, Steingrüebli","47.414880","9.393234","","Parent8589630"
"8502515","St. Gallen, Kolosseumstrasse","47.439257","9.394671","","Parent8502515"
"8589591","St. Gallen, Kirche St. Georgen","47.416406","9.382050","","Parent8589591"
"8589559","St. Gallen, Berneggstrasse","47.419895","9.374585","","Parent8589559"
"8589554","St. Gallen, Bach St. Georgen","47.414668","9.397213","","Parent8589554"
"8589570","St. Gallen, Etzelbünt","47.415373","9.386757","","Parent8589570"
"8589608","St. Gallen, Post St. Georgen","47.418266","9.381241","","Parent8589608"
"8589601","St. Gallen, Mühlegg","47.419488","9.379687","","Parent8589601"
"8589555:0:B","St. Gallen, Bachstrasse","47.435611","9.392821","","Parent8589555"
"8589897","St. Gallen, Hechtacker","47.410686","9.345461","","Parent8589897"
"8589898","St. Gallen, Bernhardswies","47.409075","9.341733","","Parent8589898"
"8589899","St. Gallen, Walserstrasse","47.406904","9.334709","","Parent8589899"
"8594989","St. Gallen Haggen, Bahnhof","47.407567","9.338149","","Parent8594989"
"8589902","St. Gallen, Hinterberg","47.404010","9.326246","","Parent8589902"
"8589901","St. Gallen, Hinterbergstrasse","47.405275","9.327962","","Parent8589901"
"8589900","St. Gallen, Rickenweg","47.406521","9.331142","","Parent8589900"
"8582882","Wasserauen, Bahnhof","47.285841","9.428573","","Parent8582882"
"8506260","Weissbad, Bahnhof","47.310490","9.435508","","Parent8506260"
"8582881","Schwende, Bahnhof","47.300098","9.435428","","Parent8582881"
"8503495","Schaffhausen, Bahnhof","47.697861","8.632747","","Parent8503495"
"8573737","Schaffhausen, Lindli","47.692286","8.652160","","Parent8573737"
"8592555","Schaffhausen, Im Freien","47.691609","8.661340","","Parent8592555"
"8592585","Schaffhausen, Vögelingässchen","47.690563","8.659741","","Parent8592585"
"8592571","Schaffhausen, Rebhangstr.","47.691058","8.656382","","Parent8592571"
"8581394","Mörschwil, Kirche","47.468237","9.424971","","Parent8581394"
"8580866","Tübach, Schulstrasse","47.485207","9.454472","","Parent8580866"
"8574277","Horn, Bahnhof","47.493554","9.462808","","Parent8574277"
"8574095:0:G","St. Gallen, Bahnhof","47.423493","9.370488","","Parent8574095"
"8583788","Steinach, Hafen","47.501632","9.447088","","Parent8583788"
"8581395","Mörschwil, Altes Gemeindehaus","47.466980","9.421091","","Parent8581395"
"8580865","Tübach, Waldegg","47.473599","9.450690","","Parent8580865"
"8574279","Horn, Rütiwiese","47.497566","9.453798","","Parent8574279"
"8581393","Mörschwil, Fahrn","47.462109","9.434395","","Parent8581393"
"8581396","Mörschwil, Bitzi","47.465243","9.420291","","Parent8581396"
"8581397","Mörschwil, Lantschen","47.463871","9.420336","","Parent8581397"
"8580869","Steinach, Schule","47.499077","9.439784","","Parent8580869"
"8580867","Tübach, Sonne","47.486634","9.452603","","Parent8580867"
"8581398","Mörschwil, Alberenberg","47.456819","9.421225","","Parent8581398"
"8589610","St. Gallen, Riederenholz","47.446517","9.417686","","Parent8589610"
"8580868","Steinach, Obersteinach Käserei","47.492674","9.436092","","Parent8580868"
"8580688","St. Gallen, Remishueb / Klinik","47.443485","9.414632","","Parent8580688"
"8580687","St. Gallen, Obere Waid","47.450223","9.420318","","Parent8580687"
"8506264","Steinach, Post","47.502469","9.441851","","Parent8506264"
"8580686","Mörschwil, Riederen","47.458684","9.430559","","Parent8580686"
"8574276","Horn, Grünau","47.491636","9.458380","","Parent8574276"
"8506654","St. Gallen, Neudorf","47.436723","9.406412","","Parent8506654"
"8506300:0:2","St. Gallen Winkeln","47.403737","9.302181","","Parent8506300"
"8506300:0:1","St. Gallen Winkeln","47.403621","9.302360","","Parent8506300"
"8589590","St. Gallen, Industriestrasse","47.404764","9.301812","","Parent8589590"
"8506302","St. Gallen","47.423177","9.369896","","Parent8506302"
"8506302:0:5","St. Gallen","47.424125","9.370102","","Parent8506302"
"8506302:0:4","St. Gallen","47.424107","9.370138","","Parent8506302"
"8506302:0:1","St. Gallen","47.424527","9.371045","","Parent8506302"
"8506302:0:6","St. Gallen","47.423499","9.369114","","Parent8506302"
"8506302:0:2","St. Gallen","47.424484","9.370857","","Parent8506302"
"8506302:0:3","St. Gallen","47.424508","9.370803","","Parent8506302"
"8506302:0:12","St. Gallen","47.423177","9.369896","","Parent8506302"
"8506302:0:11","St. Gallen","47.423177","9.369896","","Parent8506302"
"8506302:0:7","St. Gallen","47.423366","9.368809","","Parent8506302"
"8506270","St. Gallen Marktplatz","47.426362","9.376723","","Parent8506270"
"8506301:0:1","St. Gallen Bruggen","47.407452","9.330720","","Parent8506301"
"8506301:0:2","St. Gallen Bruggen","47.407306","9.330639","","Parent8506301"
"8506392:0:4","St. Gallen Haggen","47.407841","9.338140","","Parent8506392"
"8506392:0:3","St. Gallen Haggen","47.407841","9.338140","","Parent8506392"
"8510128","St. Gallen, Birnbäumen","47.425845","9.393153","","Parent8510128"
"8506358","St. Gallen Spisertor","47.424733","9.379624","","Parent8506358"
"8506359","St. Gallen Schülerhaus","47.425007","9.387422","","Parent8506359"
"8506361","St. Gallen Notkersegg","47.425225","9.404041","","Parent8506361"
"8506362","Schwarzer Bären","47.422588","9.415368","","Parent8506362"
"8506364","Vögelinsegg","47.416090","9.436389","","Parent8506364"
"8506365","Schützengarten","47.412722","9.438257","","Parent8506365"
"8506366","Speicher","47.411002","9.442713","","Parent8506366"
"8506366:0:2","Speicher","47.411002","9.442713","","Parent8506366"
"8506366:0:1","Speicher","47.411002","9.442713","","Parent8506366"
"8506367","Bendlehn","47.406959","9.450510","","Parent8506367"
"8506368","Gfeld","47.405032","9.455757","","Parent8506368"
"8506369","Trogen","47.407263","9.461416","","Parent8506369"
"8506303:0:4","St. Gallen St. Fiden","47.434918","9.393809","","Parent8506303"
"8506303:0:3","St. Gallen St. Fiden","47.434870","9.393845","","Parent8506303"
"8506303:0:1","St. Gallen St. Fiden","47.434766","9.393908","","Parent8506303"
"8506393:0:3","Wittenbach","47.462850","9.388536","","Parent8506393"
"8506393:0:2","Wittenbach","47.462850","9.388536","","Parent8506393"
"8573965:0:C","Wittenbach, Bahnhof","47.462844","9.388221","","Parent8573965"
"8573965:0:E","Wittenbach, Bahnhof","47.462844","9.388221","","Parent8573965"
"8573965:0:B","Wittenbach, Bahnhof","47.462844","9.388221","","Parent8573965"
"8506381","Sammelplatz","47.348270","9.432454","","Parent8506381"
"8506378","Gais","47.360922","9.451157","","Parent8506378"
"8506378:0:3","Gais","47.360922","9.451166","","Parent8506378"
"8506378:0:1","Gais","47.360922","9.451166","","Parent8506378"
"8506378:0:2","Gais","47.360922","9.451157","","Parent8506378"
"8506380","Hirschberg","47.331383","9.422860","","Parent8506380"
"8506286","Appenzell","47.328534","9.409529","","Parent8506286"
"8506286:0:2","Appenzell","47.328290","9.408829","","Parent8506286"
"8506286:0:3","Appenzell","47.328290","9.408829","","Parent8506286"
"8506286:0:4","Appenzell","47.328290","9.408918","","Parent8506286"
"8506286:0:3/4","Appenzell","47.328534","9.409529","","Parent8506286"
"8506375","Teufen AR","47.390450","9.389793","","Parent8506375"
"8506375:0:2/3","Teufen AR","47.390450","9.389793","","Parent8506375"
"8506375:0:3","Teufen AR","47.390450","9.389793","","Parent8506375"
"8506375:0:1","Teufen AR","47.390450","9.389793","","Parent8506375"
"8506382","Zweibrücken","47.360161","9.444420","","Parent8506382"
"8506276","Strahlholz","47.366550","9.431861","","Parent8506276"
"8506377","Bühler","47.372975","9.421091","","Parent8506377"
"8506376","Steigbach","47.377014","9.404912","","Parent8506376"
"8589913","St. Gallen, Mühlegg Talstation","47.422095","9.377648","","Parent8589913"
"8506371","St. Gallen Riethüsli","47.411379","9.367272","","Parent8506371"
"8506257","Wasserauen (Ebenalpbahn)","47.286651","9.428618","","Parent8506257"
"8506289","Wasserauen","47.285560","9.428618","","Parent8506289"
"8506289:0:1","Wasserauen","47.285560","9.428618","","Parent8506289"
"8506288","Weissbad","47.310447","9.435697","","Parent8506288"
"8506277","Schwende","47.300055","9.435589","","Parent8506277"
"8503424","Schaffhausen","47.698284","8.632756","","Parent8503424"
"8588887","Schaffhausen, Bahnhof Nord","47.699505","8.631956","","Parent8588887"
"8503424:0:1","Schaffhausen","47.696972","8.631624","","Parent8503424"
"8503424:0:2","Schaffhausen","47.697280","8.631642","","Parent8503424"
"8503424:0:4","Schaffhausen","47.697244","8.631498","","Parent8503424"
"8503424:0:3","Schaffhausen","47.697286","8.631615","","Parent8503424"
"8503424:0:5","Schaffhausen","47.697250","8.631453","","Parent8503424"
"8503424:0:6","Schaffhausen","47.698242","8.632028","","Parent8503424"
"8503424:0:A35","Schaffhausen","47.698284","8.632756","","Parent8503424"
"8506304:0:2","Mörschwil","47.475779","9.414012","","Parent8506304"
"8506304:0:1","Mörschwil","47.475779","9.414138","","Parent8506304"
"8581394:0:B","Mörschwil, Kirche","47.468304","9.424810","","Parent8581394"
"8581394:0:A","Mörschwil, Kirche","47.468304","9.424810","","Parent8581394"
"8510775","Tübach, Tennishalle","47.486021","9.455325","","Parent8510775"
"8506307:0:2","Horn","47.493171","9.462907","","Parent8506307"
"8506307:0:1","Horn","47.493244","9.462934","","Parent8506307"
"8510878","Mörschwil, Bahnhof","47.474698","9.414578","","Parent8510878"
"8516271:0:1","Steinach","47.501116","9.441599","","Parent8516271"
