stop_id,stop_name,stop_lat,stop_lon,location_type,parent_station
"stopA","Stop A","47.000001","8.000001","",""
"stopB","Stop B","47.000002","8.000002","",""
"stopC","Stop C","47.000003","8.000003","",""
"stopD","Stop D","47.000004","8.000004","",""
"stopE","Stop E","47.000005","8.000005","",""
"stopF","Stop F","47.000006","8.000006","",""
"stopG","Stop G","47.000007","8.000007","",""
"stopH","Stop H","47.000008","8.000008","",""
"stopI","Stop I","47.000009","8.000009","",""
"stopJ","Stop J","47.000010","8.000010","",""
"stopK","Stop K","47.000011","8.000011","",""
"stopL","Stop L","47.000012","8.000012","",""
"FUR_CREEK_RES","Furnace Creek Resort (Demo)","36.425288","-117.133162","","","1234","",
"BEATTY_AIRPORT","Nye County Airport (Demo)","36.868446","-116.784582","","","1235","0","BEATTY_AIRPORT_STATION"
"BULLFROG","Bullfrog (Demo)","36.88108","-116.81797","","","",""
"STAGECOACH","Stagecoach Hotel & Casino (Demo)","36.915682","-116.751677","","","1236","",""
"NADAV","North Ave / D Ave N (Demo)","36.914893","-116.76821","","","1237","",""
"NANAA","North Ave / N A Ave (Demo)","36.914944","-116.761472","","","1238","",""
"DADAN","Doing Ave / D Ave N (Demo)","36.909489","-116.768242","","","","",""
"EMSI","E Main St / S Irving St (Demo)","36.905697","-116.76218","","","","",""
"AMV","Amargosa Valley (Demo)","36.641496","-116.40094","","","","",""
